[
  {
    "name": "餐廳",
    "lat": 24.73377,
    "lng": 121.095332
  },
  {
    "name": "咖啡廳",
    "lat": 23.8598491,
    "lng": 120.588905
  },
  {
    "name": "甜點店",
    "lat": 23.5613263,
    "lng": 120.4651777
  },
  {
    "name": "電影院",
    "lat": 24.130307,
    "lng": 120.644955
  },
  {
    "name": "藥局",
    "lat": 24.7757962,
    "lng": 121.7452841
  },
  {
    "name": "動物園",
    "lat": 24.6464275,
    "lng": 121.7448882
  },
  {
    "name": "森林",
    "lat": 25.069564,
    "lng": 121.352516
  },
  {
    "name": "水邊",
    "lat": 24.71968,
    "lng": 121.042746
  },
  {
    "name": "郵局",
    "lat": 23.6038477,
    "lng": 120.3955107
  },
  {
    "name": "美術館",
    "lat": 23.0517767,
    "lng": 120.1704526
  },
  {
    "name": "機場",
    "lat": 25.081557,
    "lng": 121.240584
  },
  {
    "name": "車站",
    "lat": 24.492125,
    "lng": 120.678563
  },
  {
    "name": "海灘",
    "lat": 25.1193985,
    "lng": 121.2454307
  },
  {
    "name": "漢堡店",
    "lat": 24.6933584,
    "lng": 120.9151455
  },
  {
    "name": "便利店",
    "lat": 23.072175,
    "lng": 120.298294
  },
  {
    "name": "超市",
    "lat": 22.635427,
    "lng": 120.596974
  },
  {
    "name": "麵包店",
    "lat": 23.8524118,
    "lng": 120.5863459
  },
  {
    "name": "美容院",
    "lat": 24.730518,
    "lng": 121.093573
  },
  {
    "name": "服裝店",
    "lat": 24.2515873,
    "lng": 120.553818
  },
  {
    "name": "公園",
    "lat": 24.728863,
    "lng": 121.09388
  },
  {
    "name": "圖書館",
    "lat": 24.119876,
    "lng": 120.72155
  },
  {
    "name": "路邊",
    "lat": 24.7047076,
    "lng": 121.0508716
  },
  {
    "name": "壽司餐廳",
    "lat": 24.248149,
    "lng": 120.565503
  },
  {
    "name": "山丘",
    "lat": 25.141393,
    "lng": 121.526889
  },
  {
    "name": "體育館",
    "lat": 23.059215,
    "lng": 120.231865
  },
  {
    "name": "主題樂園",
    "lat": 25.001723,
    "lng": 121.492069
  },
  {
    "name": "公車站",
    "lat": 24.728218,
    "lng": 121.099638
  },
  {
    "name": "義式餐廳",
    "lat": 24.0740655,
    "lng": 120.5450056
  },
  {
    "name": "拉麵店",
    "lat": 23.051755,
    "lng": 121.1614
  },
  {
    "name": "橋樑",
    "lat": 24.749316,
    "lng": 121.094203
  },
  {
    "name": "飯店",
    "lat": 23.041553,
    "lng": 120.244132
  },
  {
    "name": "化妝品商店",
    "lat": 24.805571,
    "lng": 120.992174
  },
  {
    "name": "神社和寺廟",
    "lat": 34.96244194007354,
    "lng": 135.80717836724943
  },
  {
    "name": "電器行",
    "lat": 24.2203561,
    "lng": 120.6468756
  },
  {
    "name": "咖哩餐廳",
    "lat": 24.223393,
    "lng": 120.577254
  },
  {
    "name": "五金行",
    "lat": 25.0305989,
    "lng": 121.4229798
  },
  {
    "name": "大學&學院",
    "lat": 24.785466,
    "lng": 121.002174
  },
  {
    "name": "墨西哥餐廳",
    "lat": 23.1719735,
    "lng": -102.8727872
  },
  {
    "name": "自助洗衣店&乾洗店",
    "lat": 24.929562,
    "lng": 121.373013
  },
  {
    "name": "韓國餐廳",
    "lat": 22.6738459,
    "lng": 120.4851978
  }
]
